[
  {
    "id": 1,
    "name": "高須海浜公園",
    "address": "千葉県浦安市高洲９丁目１８ 高洲海浜公園",
    "city": "浦安市高洲",
    "lat": 35.631831,
    "lon": 139.9208351
  },
  {
    "id": 2,
    "name": "検見川浜突堤",
    "address": "千葉県千葉市美浜区磯辺２丁目８ 検見川浜",
    "city": "千葉市美浜区磯辺",
    "lat": 35.6225579,
    "lon": 140.0549444
  },
  {
    "id": 3,
    "name": "千葉港",
    "address": "千葉県千葉市中央区中央港１丁目６",
    "city": "千葉市中央区中央港",
    "lat": 35.600715,
    "lon": 140.1062566
  },
  {
    "id": 4,
    "name": "養老川河口",
    "address": "千葉県 養老川",
    "city": "養老川",
    "lat": 35.3597209,
    "lon": 140.1444839
  },
  {
    "id": 5,
    "name": "オリジナルメーカー海づり公園",
    "address": "千葉県市原市五井南海岸１−１２",
    "city": "市原市五井南海岸",
    "lat": 35.54235,
    "lon": 140.060384
  },
  {
    "id": 6,
    "name": "長浦港",
    "address": "千葉県袖ケ浦市長浦５８０−３３",
    "city": "袖ケ浦市長浦",
    "lat": 35.4531526,
    "lon": 139.9897952
  },
  {
    "id": 7,
    "name": "袖ケ浦港",
    "address": "千葉県袖ケ浦市中袖３３−１",
    "city": "袖ケ浦市中袖",
    "lat": 35.4469315,
    "lon": 139.9708301
  },
  {
    "id": 8,
    "name": "袖ケ浦海浜公園",
    "address": "千葉県袖ケ浦市南袖３６ 袖ケ浦海浜公園",
    "city": "袖ケ浦市南袖",
    "lat": 35.4558405,
    "lon": 139.9539727
  },
  {
    "id": 9,
    "name": "見立港",
    "address": "千葉県木更津市中島３６５９−４７ 見立橋",
    "city": "木更津市中島",
    "lat": 35.4276409,
    "lon": 139.9031954
  },
  {
    "id": 10,
    "name": "小櫃川河口",
    "address": "千葉県木更津市畔戸８８０",
    "city": "木更津市畔戸",
    "lat": 35.4136014,
    "lon": 139.9003509
  },
  {
    "id": 11,
    "name": "木更津内港公園",
    "address": "千葉県木更津市内港１ 内港公園",
    "city": "木更津市内港",
    "lat": 35.386778,
    "lon": 139.9164898
  },
  {
    "id": 12,
    "name": "鳥居崎海浜公園",
    "address": "千葉県木更津市富士見３丁目５−5番 鳥居崎海浜公園",
    "city": "木更津市富士見",
    "lat": 35.3819289,
    "lon": 139.9136165
  },
  {
    "id": 13,
    "name": "木更津潮浜公園",
    "address": "千葉県木更津市潮浜１丁目１２ 潮浜公園",
    "city": "木更津市潮浜",
    "lat": 35.3781762,
    "lon": 139.9077118
  },
  {
    "id": 14,
    "name": "富津みなと公園",
    "address": "千葉県富津市新富 富津みなと公園",
    "city": "富津市新富富津みなと公園",
    "lat": 35.321773,
    "lon": 139.8194658
  },
  {
    "id": 15,
    "name": "富津岬",
    "address": "千葉県富津市富津２８８０",
    "city": "富津市富津",
    "lat": 35.3128605,
    "lon": 139.7839132
  },
  {
    "id": 16,
    "name": "布引海岸",
    "address": "富津 布引海岸",
    "city": "富津布引海岸",
    "lat": 35.3065955,
    "lon": 139.8095046
  },
  {
    "id": 17,
    "name": "下洲港",
    "address": "千葉県富津市富津",
    "city": "富津市富津",
    "lat": 35.303585,
    "lon": 139.821701
  },
  {
    "id": 18,
    "name": "大貫港",
    "address": "千葉県富津市小久保３０８９",
    "city": "富津市小久保",
    "lat": 35.2781048,
    "lon": 139.8511123
  },
  {
    "id": 19,
    "name": "新舞子海岸",
    "address": "千葉県富津市八幡１５８−１",
    "city": "富津市八幡",
    "lat": 35.2493903,
    "lon": 139.8665692
  },
  {
    "id": 20,
    "name": "上総湊港",
    "address": "千葉県富津市湊１４５−９",
    "city": "富津市湊",
    "lat": 35.2187107,
    "lon": 139.865956
  },
  {
    "id": 21,
    "name": "金谷フェリー港",
    "address": "千葉県富津市金谷４３０３",
    "city": "富津市金谷",
    "lat": 35.1690582,
    "lon": 139.8176306
  },
  {
    "id": 22,
    "name": "金谷港",
    "address": "千葉県富津市金谷４３０３",
    "city": "富津市金谷",
    "lat": 35.1690582,
    "lon": 139.8176306
  },
  {
    "id": 23,
    "name": "元名海岸",
    "address": "千葉県安房郡鋸南町元名 元名海水浴場",
    "city": "安房郡鋸南町元名元名海水浴場",
    "lat": 35.1476251,
    "lon": 139.8309827
  },
  {
    "id": 24,
    "name": "保田海岸",
    "address": "千葉県安房郡鋸南町保田１６−１ 保田中央海岸",
    "city": "安房郡鋸南町保田",
    "lat": 35.1405477,
    "lon": 139.83547
  },
  {
    "id": 25,
    "name": "保田港",
    "address": "千葉県安房郡鋸南町吉浜",
    "city": "安房郡鋸南町吉浜",
    "lat": 35.1313954,
    "lon": 139.8378568
  },
  {
    "id": 26,
    "name": "大六港",
    "address": "千葉県安房郡鋸南町大六８６−１",
    "city": "安房郡鋸南町大六",
    "lat": 35.120424,
    "lon": 139.833412
  },
  {
    "id": 27,
    "name": "龍島港",
    "address": "千葉県安房郡鋸南町竜島７９",
    "city": "安房郡鋸南町竜島",
    "lat": 35.1187217,
    "lon": 139.8278756
  },
  {
    "id": 28,
    "name": "舟藤堤防",
    "address": "千葉県安房郡鋸南町勝山",
    "city": "安房郡鋸南町勝山",
    "lat": 35.1138158,
    "lon": 139.8242738
  },
  {
    "id": 29,
    "name": "岩井袋港",
    "address": "千葉県安房郡鋸南町岩井袋１３３",
    "city": "安房郡鋸南町岩井袋",
    "lat": 35.1019022,
    "lon": 139.8297049
  },
  {
    "id": 30,
    "name": "岩井海岸",
    "address": "千葉県南房総市久枝７７９",
    "city": "南房総市久枝",
    "lat": 35.0991592,
    "lon": 139.8372344
  },
  {
    "id": 31,
    "name": "富浦港",
    "address": "千葉県南房総市富浦町豊岡",
    "city": "南房総市富浦町豊岡",
    "lat": 35.0488588,
    "lon": 139.8321735
  },
  {
    "id": 32,
    "name": "原岡桟橋",
    "address": "千葉県南房総市富浦町原岡２１０−１ 原岡海水浴場",
    "city": "南房総市富浦町原岡",
    "lat": 35.0444362,
    "lon": 139.8323626
  },
  {
    "id": 33,
    "name": "富浦新港",
    "address": "千葉県南房総市富浦町多田良",
    "city": "南房総市富浦町多田良",
    "lat": 35.0394455,
    "lon": 139.8220988
  },
  {
    "id": 34,
    "name": "明神岬",
    "address": "千葉県南房総市富浦町多田良",
    "city": "南房総市富浦町多田良",
    "lat": 35.0431538,
    "lon": 139.8155482
  },
  {
    "id": 35,
    "name": "南ケイセン",
    "address": "千葉県南房総市富浦町多田良１２１２−２９",
    "city": "南房総市富浦町多田良",
    "lat": 35.0389464,
    "lon": 139.8127509
  },
  {
    "id": 36,
    "name": "船形港",
    "address": "千葉県館山市船形３９５",
    "city": "館山市船形",
    "lat": 35.0257365,
    "lon": 139.8482366
  },
  {
    "id": 37,
    "name": "平久里川河口",
    "address": "千葉県 平久里川",
    "city": "平久里川",
    "lat": 35.0571493,
    "lon": 139.8984752
  },
  {
    "id": 38,
    "name": "北条海岸",
    "address": "千葉県館山市北条２３０７ 北条海水浴場",
    "city": "館山市北条",
    "lat": 35.0021209,
    "lon": 139.859085
  },
  {
    "id": 39,
    "name": "館山夕日桟橋",
    "address": "千葉県館山市館山",
    "city": "館山市館山",
    "lat": 34.991406,
    "lon": 139.8527582
  },
  {
    "id": 40,
    "name": "館山港",
    "address": "千葉県館山市沼９８５",
    "city": "館山市沼",
    "lat": 34.9861123,
    "lon": 139.8426428
  },
  {
    "id": 41,
    "name": "自衛隊堤防",
    "address": "千葉県館山市富士見５４５−６",
    "city": "館山市富士見",
    "lat": 34.9892138,
    "lon": 139.8425386
  },
  {
    "id": 42,
    "name": "沖ノ島護岸",
    "address": "千葉県館山市富士見２５８−１",
    "city": "館山市富士見",
    "lat": 34.9908028,
    "lon": 139.8323261
  },
  {
    "id": 43,
    "name": "香谷漁港",
    "address": "千葉県館山市香１５１−２",
    "city": "館山市香",
    "lat": 34.9794349,
    "lon": 139.8166526
  },
  {
    "id": 44,
    "name": "浜田港",
    "address": "浜田港",
    "city": "浜田港",
    "lat": 34.8745381,
    "lon": 132.0512138
  },
  {
    "id": 45,
    "name": "見物堤防",
    "address": "千葉県館山市見物",
    "city": "館山市見物",
    "lat": 34.9746864,
    "lon": 139.7929198
  },
  {
    "id": 46,
    "name": "洲崎灯台下",
    "address": "千葉県館山市洲崎１０４３",
    "city": "館山市洲崎",
    "lat": 34.9754907,
    "lon": 139.7578079
  },
  {
    "id": 47,
    "name": "平砂浦",
    "address": "千葉県館山市藤原 平砂浦海岸",
    "city": "館山市藤原平砂浦海岸",
    "lat": 34.9393942,
    "lon": 139.8198229
  },
  {
    "id": 48,
    "name": "小湊港",
    "address": "千葉県鴨川市小湊",
    "city": "鴨川市小湊",
    "lat": 35.1131418,
    "lon": 140.2012694
  },
  {
    "id": 49,
    "name": "城崎海岸",
    "address": "千葉県鴨川市天津",
    "city": "鴨川市天津",
    "lat": 35.1229277,
    "lon": 140.1688826
  },
  {
    "id": 50,
    "name": "天津港",
    "address": "千葉県鴨川市天津 天津１３９０ 天津小湊港",
    "city": "鴨川市天津天津",
    "lat": 35.1228078,
    "lon": 140.1592049
  },
  {
    "id": 51,
    "name": "二夕間海岸",
    "address": "千葉県鴨川市天津１１０３−３７",
    "city": "鴨川市天津",
    "lat": 35.1219324,
    "lon": 140.1527807
  },
  {
    "id": 52,
    "name": "浜荻港",
    "address": "千葉県鴨川市浜荻１４５５",
    "city": "鴨川市浜荻",
    "lat": 35.1188086,
    "lon": 140.1441655
  },
  {
    "id": 53,
    "name": "東条海岸",
    "address": "千葉県鴨川市東町１４６４ 東条海岸",
    "city": "鴨川市東町",
    "lat": 35.1174113,
    "lon": 140.1241997
  },
  {
    "id": 54,
    "name": "前原フィッシャリーナ",
    "address": "千葉県鴨川市前原３５９−７１",
    "city": "鴨川市前原",
    "lat": 35.0984149,
    "lon": 140.1054524
  },
  {
    "id": 55,
    "name": "鴨川港",
    "address": "千葉県鴨川市貝渚",
    "city": "鴨川市貝渚",
    "lat": 35.0921602,
    "lon": 140.1067997
  },
  {
    "id": 56,
    "name": "江見港",
    "address": "千葉県鴨川市東江見３９５",
    "city": "鴨川市東江見",
    "lat": 35.0590113,
    "lon": 140.0611102
  },
  {
    "id": 57,
    "name": "新官港",
    "address": "千葉県勝浦市新官１８８",
    "city": "勝浦市新官",
    "lat": 35.1556565,
    "lon": 140.3302247
  },
  {
    "id": 58,
    "name": "豊浜港",
    "address": "愛知県知多郡南知多町豊浜月之浦１−１２５",
    "city": "愛知県知多郡南知多町豊浜月之浦",
    "lat": 34.7055012,
    "lon": 136.9375861
  },
  {
    "id": 59,
    "name": "川津港",
    "address": "千葉県勝浦市川津１４４６−６",
    "city": "勝浦市川津",
    "lat": 35.1445419,
    "lon": 140.3263025
  },
  {
    "id": 60,
    "name": "勝浦灯台下",
    "address": "千葉県勝浦市川津",
    "city": "勝浦市川津",
    "lat": 35.1363804,
    "lon": 140.3200137
  },
  {
    "id": 61,
    "name": "八幡岬",
    "address": "千葉県勝浦市浜勝浦 八幡岬",
    "city": "勝浦市浜勝浦八幡岬",
    "lat": 35.1346524,
    "lon": 140.3113791
  },
  {
    "id": 62,
    "name": "勝浦港",
    "address": "千葉県勝浦市浜勝浦",
    "city": "勝浦市浜勝浦",
    "lat": 35.1465452,
    "lon": 140.3126506
  },
  {
    "id": 63,
    "name": "鵜原港",
    "address": "千葉県勝浦市鵜原９８８",
    "city": "勝浦市鵜原",
    "lat": 35.1334305,
    "lon": 140.2794528
  },
  {
    "id": 64,
    "name": "犬ヶ岬",
    "address": "京都府京丹後市丹後町此代",
    "city": "京都府京丹後市丹後町此代",
    "lat": 35.7571067,
    "lon": 135.1373353
  },
  {
    "id": 65,
    "name": "守谷海岸",
    "address": "千葉県守谷 守谷海水浴場",
    "city": "守谷守谷海水浴場",
    "lat": 35.1380889,
    "lon": 140.2616354
  },
  {
    "id": 66,
    "name": "守谷港",
    "address": "千葉県勝浦市守谷８５２",
    "city": "勝浦市守谷",
    "lat": 35.1369923,
    "lon": 140.2567028
  },
  {
    "id": 67,
    "name": "興津港",
    "address": "千葉県勝浦市興津 興津港",
    "city": "勝浦市興津興津港",
    "lat": 35.1293309,
    "lon": 140.2496654
  },
  {
    "id": 68,
    "name": "浜行川港",
    "address": "千葉県勝浦市浜行川",
    "city": "勝浦市浜行川",
    "lat": 35.1220742,
    "lon": 140.2349491
  },
  {
    "id": 69,
    "name": "太東港",
    "address": "千葉県いすみ市岬町中原",
    "city": "いすみ市岬町中原",
    "lat": 35.329142,
    "lon": 140.401563
  },
  {
    "id": 70,
    "name": "夷隅川河口",
    "address": "千葉県いすみ市岬町和泉",
    "city": "いすみ市岬町和泉",
    "lat": 35.3002621,
    "lon": 140.4098013
  },
  {
    "id": 71,
    "name": "大原港",
    "address": "千葉県いすみ市大原１１５７４ 大原漁港",
    "city": "いすみ市大原",
    "lat": 35.2533502,
    "lon": 140.4043934
  },
  {
    "id": 72,
    "name": "岩船港",
    "address": "新潟県村上市岩船２１３２−５ 岩船港",
    "city": "新潟県村上市岩船",
    "lat": 38.1874329,
    "lon": 139.4290895
  },
  {
    "id": 73,
    "name": "ママ岬",
    "address": "千葉県いすみ市岩船",
    "city": "いすみ市岩船",
    "lat": 35.2024861,
    "lon": 140.3932615
  },
  {
    "id": 74,
    "name": "岩和田港",
    "address": "千葉県夷隅郡御宿町岩和田７１０",
    "city": "夷隅郡御宿町岩和田",
    "lat": 35.1804016,
    "lon": 140.3654091
  },
  {
    "id": 75,
    "name": "御宿海岸",
    "address": "千葉県夷隅郡御宿町浜",
    "city": "夷隅郡御宿町浜",
    "lat": 35.1816239,
    "lon": 140.3513684
  },
  {
    "id": 76,
    "name": "御宿港",
    "address": "千葉県夷隅郡御宿町浜２１６４−１",
    "city": "夷隅郡御宿町浜",
    "lat": 35.1794061,
    "lon": 140.3485885
  },
  {
    "id": 77,
    "name": "片貝港",
    "address": "千葉県山武郡九十九里町小関 九十九里町小関2334-3 片貝漁港",
    "city": "山武郡九十九里町小関九十九里町小関",
    "lat": 35.5396917,
    "lon": 140.4557272
  },
  {
    "id": 78,
    "name": "片貝海岸",
    "address": "千葉県山武郡九十九里町片貝",
    "city": "山武郡九十九里町片貝",
    "lat": 35.5275583,
    "lon": 140.4522269
  },
  {
    "id": 79,
    "name": "不動堂海岸",
    "address": "千葉県山武郡九十九里町不動堂 不動堂海水浴場",
    "city": "山武郡九十九里町不動堂不動堂海水浴場",
    "lat": 35.5073597,
    "lon": 140.4365312
  },
  {
    "id": 80,
    "name": "白里海岸",
    "address": "千葉県大網白里市南今泉４８８１−１",
    "city": "大網白里市南今泉",
    "lat": 35.4851603,
    "lon": 140.4220287
  },
  {
    "id": 81,
    "name": "南白亀川河口",
    "address": "千葉県 南白亀川",
    "city": "南白亀川",
    "lat": 35.4936164,
    "lon": 140.3740241
  },
  {
    "id": 82,
    "name": "中里海岸",
    "address": "千葉県長生郡白子町中里 中里海水浴場",
    "city": "長生郡白子町中里中里海水浴場",
    "lat": 35.4313357,
    "lon": 140.400215
  },
  {
    "id": 83,
    "name": "一松海岸",
    "address": "千葉県長生郡長生村一松戊 一松海水浴場",
    "city": "長生郡長生村一松戊一松海水浴場",
    "lat": 35.4124076,
    "lon": 140.3951614
  },
  {
    "id": 84,
    "name": "一宮海岸",
    "address": "千葉県長生郡一宮町一宮 一宮海水浴場",
    "city": "長生郡一宮町一宮一宮海水浴場",
    "lat": 35.3774261,
    "lon": 140.3909912
  },
  {
    "id": 85,
    "name": "釣ヶ崎海岸",
    "address": "千葉県長生郡一宮町東浪見",
    "city": "長生郡一宮町東浪見",
    "lat": 35.3359696,
    "lon": 140.3946096
  },
  {
    "id": 86,
    "name": "飯岡港",
    "address": "千葉県旭市下永井",
    "city": "旭市下永井",
    "lat": 35.6922245,
    "lon": 140.7333872
  },
  {
    "id": 87,
    "name": "井戸野浜",
    "address": "千葉県旭市井戸野４６９６",
    "city": "旭市井戸野",
    "lat": 35.6820631,
    "lon": 140.6390045
  },
  {
    "id": 88,
    "name": "吉崎浜",
    "address": "千葉県匝瑳市吉崎４８８８−１５",
    "city": "匝瑳市吉崎",
    "lat": 35.6697031,
    "lon": 140.6200651
  },
  {
    "id": 89,
    "name": "野手浜",
    "address": "千葉県匝瑳市野手",
    "city": "匝瑳市野手",
    "lat": 35.651281,
    "lon": 140.5923484
  },
  {
    "id": 90,
    "name": "栗山川河口",
    "address": "千葉県山武郡横芝光町屋形",
    "city": "山武郡横芝光町屋形",
    "lat": 35.6094791,
    "lon": 140.5295965
  },
  {
    "id": 91,
    "name": "本須賀海岸",
    "address": "千葉県山武市本須賀３８４１−１２４",
    "city": "山武市本須賀",
    "lat": 35.5500194,
    "lon": 140.4707087
  },
  {
    "id": 92,
    "name": "銚子港",
    "address": "千葉県銚子市竹町",
    "city": "銚子市竹町",
    "lat": 35.7357075,
    "lon": 140.8412458
  },
  {
    "id": 93,
    "name": "銚子外港",
    "address": "千葉県銚子市川口町２丁目６５２９−３２",
    "city": "銚子市川口町",
    "lat": 35.7387698,
    "lon": 140.8671507
  },
  {
    "id": 94,
    "name": "黒生港",
    "address": "千葉県銚子市黒生町",
    "city": "銚子市黒生町",
    "lat": 35.7317484,
    "lon": 140.869529
  },
  {
    "id": 95,
    "name": "海鹿島ポール下",
    "address": "千葉県銚子市海鹿島町",
    "city": "銚子市海鹿島町",
    "lat": 35.7238245,
    "lon": 140.8624018
  },
  {
    "id": 96,
    "name": "君ヶ浜",
    "address": "千葉県銚子市君ケ浜",
    "city": "銚子市君ケ浜",
    "lat": 35.7137565,
    "lon": 140.8649318
  },
  {
    "id": 97,
    "name": "犬吠埼",
    "address": "千葉県銚子市犬吠埼９５７６ 犬吠埼",
    "city": "銚子市犬吠埼",
    "lat": 35.706855,
    "lon": 140.8675585
  },
  {
    "id": 98,
    "name": "外川港",
    "address": "千葉県銚子市外川町５丁目 外川漁港",
    "city": "銚子市外川町",
    "lat": 35.6969053,
    "lon": 140.8543641
  },
  {
    "id": 99,
    "name": "犬若港",
    "address": "千葉県銚子市潮見町",
    "city": "銚子市潮見町",
    "lat": 35.698873,
    "lon": 140.8472624
  },
  {
    "id": 100,
    "name": "銚子マリーナ",
    "address": "千葉県銚子市潮見町１５",
    "city": "銚子市潮見町",
    "lat": 35.704227,
    "lon": 140.840653
  }
]
